<?xml version="1.0" encoding="UTF-8"?>
<kml xmlns="http://www.opengis.net/kml/2.2">
  <Document>
    <name>舊戲院</name>
    <Style id="icon-1502-E65100-labelson-nodesc">
      <IconStyle>
        <color>ff0051e6</color>
        <scale>1</scale>
        <Icon>
          <href>https://www.gstatic.com/mapspro/images/stock/503-wht-blank_maps.png</href>
        </Icon>
      </IconStyle>
      <BalloonStyle>
        <text><![CDATA[<h3>$[name]</h3>]]></text>
      </BalloonStyle>
    </Style>
    <Placemark>
      <name>貝多芬戲院</name>
      <styleUrl>#icon-1502-E65100-labelson-nodesc</styleUrl>
      <Point>
        <coordinates>
          120.6836652,24.14169,0
        </coordinates>
      </Point>
    </Placemark>
    <Placemark>
      <name>豐中戲院</name>
      <styleUrl>#icon-1502-E65100-labelson-nodesc</styleUrl>
      <Point>
        <coordinates>
          120.6850338,24.1388179,0
        </coordinates>
      </Point>
    </Placemark>
    <Placemark>
      <name>樂舞台戲院（拆除）</name>
      <styleUrl>#icon-1502-E65100-labelson-nodesc</styleUrl>
      <Point>
        <coordinates>
          120.6770804,24.143295,0
        </coordinates>
      </Point>
    </Placemark>
    <Placemark>
      <name>公園戲院</name>
      <styleUrl>#icon-1502-E65100-labelson-nodesc</styleUrl>
      <Point>
        <coordinates>
          120.6842425,24.1421897,0
        </coordinates>
      </Point>
    </Placemark>
    <Placemark>
      <name>1+1影城（東海戲院）</name>
      <styleUrl>#icon-1502-E65100-labelson-nodesc</styleUrl>
      <Point>
        <coordinates>
          120.6823428,24.1407543,0
        </coordinates>
      </Point>
    </Placemark>
    <Placemark>
      <name>森玉戲院</name>
      <styleUrl>#icon-1502-E65100-labelson-nodesc</styleUrl>
      <Point>
        <coordinates>
          120.6775068,24.1450558,0
        </coordinates>
      </Point>
    </Placemark>
    <Placemark>
      <name>中森戲院（拆除改建）</name>
      <styleUrl>#icon-1502-E65100-labelson-nodesc</styleUrl>
      <Point>
        <coordinates>
          120.6759141,24.1472405,0
        </coordinates>
      </Point>
    </Placemark>
    <Placemark>
      <name>豪華戲院／聯美大歌廳</name>
      <styleUrl>#icon-1502-E65100-labelson-nodesc</styleUrl>
      <Point>
        <coordinates>
          120.6828304,24.1430002,0
        </coordinates>
      </Point>
    </Placemark>
    <Placemark>
      <name>萬代福影城（營業中）</name>
      <styleUrl>#icon-1502-E65100-labelson-nodesc</styleUrl>
      <Point>
        <coordinates>
          120.6802198,24.1464709,0
        </coordinates>
      </Point>
    </Placemark>
    <Placemark>
      <name>成功戲院／遠東百貨</name>
      <styleUrl>#icon-1502-E65100-labelson-nodesc</styleUrl>
      <Point>
        <coordinates>
          120.6825708,24.1402688,0
        </coordinates>
      </Point>
    </Placemark>
    <Placemark>
      <name>五洲大戲院（拆除改建）</name>
      <styleUrl>#icon-1502-E65100-labelson-nodesc</styleUrl>
      <Point>
        <coordinates>
          120.6774414,24.1461224,0
        </coordinates>
      </Point>
    </Placemark>
    <Placemark>
      <name>日新大戲院（營業中）</name>
      <styleUrl>#icon-1502-E65100-labelson-nodesc</styleUrl>
      <Point>
        <coordinates>
          120.6752819,24.143622,0
        </coordinates>
      </Point>
    </Placemark>
    <Placemark>
      <name>天外天劇場</name>
      <styleUrl>#icon-1502-E65100-labelson-nodesc</styleUrl>
      <Point>
        <coordinates>
          120.6864435,24.1353071,0
        </coordinates>
      </Point>
    </Placemark>
    <Placemark>
      <name>台中座</name>
      <styleUrl>#icon-1502-E65100-labelson-nodesc</styleUrl>
      <Point>
        <coordinates>
          120.6829684,24.1395794,0
        </coordinates>
      </Point>
    </Placemark>
  </Document>
</kml>
